,City,Cloudiness,Country,Date,Humidity,Lat,Lon,Max Temp,Windspeed
0,Luganville,75,VU,1563163213,74,-15.51,167.18,80.6,4.7
1,Bilma,73,NE,1563163213,16,18.69,12.92,90.45,5.23
2,Chokurdakh,100,RU,1563163213,66,70.62,147.9,42.57,13.98
3,Rikitea,64,PF,1563163214,86,-23.12,-134.97,74.61,13.65
4,Kayes,20,ML,1563163214,70,14.44,-11.44,86.0,10.29
5,Luderitz,0,NA,1563163213,93,-26.65,15.16,48.2,4.7
6,Vila Velha,40,BR,1563163214,78,-3.71,-38.6,86.0,9.17
7,Hermanus,0,ZA,1563163215,88,-34.42,19.24,51.01,1.99
8,Mataura,53,NZ,1563163215,77,-46.19,168.86,46.0,3.0
9,Ushuaia,40,AR,1563163215,86,-54.81,-68.31,37.4,3.36
10,Poum,0,MK,1563163215,81,41.28,20.71,51.8,5.82
11,Keti Bandar,100,PK,1563163216,80,24.14,67.45,83.61,26.91
12,Mandalgovi,100,MN,1563163216,37,45.76,106.27,76.05,12.3
13,Busselton,0,AU,1563163216,41,-33.64,115.35,66.0,20.42
14,Uchiza,0,PE,1563163216,87,-8.46,-76.46,63.45,3.44
15,Carnarvon,0,ZA,1563163217,27,-30.97,22.13,49.77,6.78
16,Dikson,100,RU,1563163217,94,73.51,80.55,42.21,14.61
17,Ribeira Grande,100,PT,1563163217,66,38.52,-28.7,68.49,8.39
18,Bambous Virieux,75,MU,1563163217,88,-20.34,57.76,68.0,12.75
19,Khudumelapye,0,BW,1563163218,47,-23.91,24.95,47.25,7.94
20,Jamestown,90,AU,1563163195,77,-33.21,138.6,52.29,7.09
21,Awbari,0,LY,1563163218,18,26.59,12.77,85.05,6.4
22,Severo-Kurilsk,100,RU,1563163218,96,50.68,156.12,44.37,12.08
23,Chistogorskiy,0,RU,1563163219,66,53.98,87.38,69.21,11.48
24,Norman Wells,75,CA,1563163219,77,65.28,-126.83,66.2,3.36
25,Ust-Uda,100,RU,1563163219,98,54.17,103.03,59.13,0.6
26,Grabouw,20,ZA,1563163219,87,-34.15,19.01,51.01,9.17
27,Hilo,90,US,1563163219,58,19.71,-155.08,82.4,9.17
28,Butaritari,99,KI,1563163220,70,3.07,172.79,84.69,8.99
29,Port Elizabeth,1,US,1563163171,83,39.31,-74.98,80.6,5.73
30,Havre,1,US,1563163220,72,48.55,-109.68,70.0,6.93
31,Cabo San Lucas,40,MX,1563163197,78,22.89,-109.91,89.6,13.87
32,Souillac,0,FR,1563163220,67,45.6,-0.6,64.99,9.17
33,Vaini,75,IN,1563163221,88,15.34,74.49,73.4,6.93
34,College,75,US,1563163221,49,64.86,-147.8,73.99,5.82
35,Srednekolymsk,100,RU,1563163221,65,67.46,153.71,55.53,6.11
36,Borogontsy,10,RU,1563163222,39,62.67,131.17,81.81,8.28
37,Huarmey,10,PE,1563163222,88,-10.07,-78.15,62.01,18.77
38,Talnakh,40,RU,1563163222,87,69.49,88.39,59.0,15.66
39,Avarua,83,CK,1563163130,64,-21.21,-159.78,73.4,9.17
40,Punta Arenas,0,CL,1563163222,100,-53.16,-70.91,33.8,9.17
41,Kodiak,1,US,1563163223,78,39.95,-94.76,81.0,8.05
42,Tuktoyaktuk,75,CA,1563163223,67,69.44,-133.03,60.8,4.7
43,Ust-Maya,0,RU,1563163223,40,60.42,134.54,84.69,2.68
44,Yarmouth,5,CA,1563163210,100,43.84,-66.12,60.01,8.05
45,Catuday,31,PH,1563163224,67,16.29,119.81,84.33,0.67
46,Port Alfred,0,ZA,1563163224,89,-33.59,26.89,59.0,1.99
47,Khatanga,44,RU,1563163224,43,71.98,102.47,60.57,10.11
48,Biak,100,ID,1563163224,82,-0.91,122.88,67.41,6.53
49,Faanui,9,PF,1563163224,81,-16.48,-151.75,78.57,11.97
50,Puerto Ayora,9,EC,1563163225,93,-0.74,-90.35,70.0,8.86
51,Pangody,12,RU,1563163225,51,65.85,74.49,79.65,16.15
52,Saint-Pierre,90,FR,1563163225,87,48.95,4.24,57.2,10.29
53,Yellowknife,20,CA,1563163226,45,62.45,-114.38,66.2,6.93
54,Alice Springs,0,AU,1563163226,33,-23.7,133.88,59.0,12.75
55,Hereford,21,GB,1563163221,95,52.06,-2.72,57.99,1.99
56,Atuona,0,PF,1563163226,75,-9.8,-139.03,80.73,15.68
57,Eufaula,1,US,1563163227,100,31.89,-85.15,77.0,3.36
58,Harper,90,US,1563163227,83,30.3,-99.24,86.0,8.23
59,Katsuura,75,JP,1563163227,69,33.93,134.5,80.6,10.29
60,Codrington,0,AU,1563163227,34,-28.95,153.24,66.0,16.11
61,Santa Cruz,3,BR,1563163228,87,-6.22,-36.02,69.57,13.76
62,Kagoro,100,NG,1563163228,97,9.6,8.38,67.41,3.29
63,Dukat,0,AL,1563163228,76,40.25,19.57,69.01,1.01
64,Puerto del Rosario,75,ES,1563163229,78,28.5,-13.86,71.6,16.11
65,Bethel,90,US,1563163229,82,60.79,-161.76,66.2,5.82
66,San Cristobal,100,HN,1563163229,78,14.68,-86.92,68.85,5.35
67,Sorland,100,NO,1563163229,78,67.67,12.69,50.49,17.36
68,Ahipara,66,NZ,1563163230,98,-35.17,173.16,62.01,22.93
69,Provideniya,0,RU,1563163230,71,64.42,-173.23,55.4,15.66
70,Auki,100,NG,1563163230,78,12.18,6.51,76.05,13.31
71,Albany,1,US,1563163124,93,42.65,-73.75,72.0,4.7
72,Okhotsk,100,RU,1563163230,79,59.36,143.24,58.05,8.03
73,Cap Malheureux,75,MU,1563163231,88,-19.98,57.61,68.0,12.75
74,Kaitangata,64,NZ,1563163231,65,-46.28,169.85,46.0,1.01
75,Upernavik,0,GL,1563163231,66,72.79,-56.15,44.37,10.04
76,Shar,100,NG,1563163231,97,7.3,8.73,72.81,3.47
77,Clyde River,75,CA,1563163232,93,70.47,-68.59,37.4,12.75
78,Fairbanks,75,US,1563163232,49,64.84,-147.72,73.99,5.82
79,Green River,1,US,1563163131,25,41.53,-109.47,75.2,4.7
80,Udachnyy,40,RU,1563163232,46,66.42,112.4,69.8,4.47
81,Miri,38,NG,1563163233,94,10.31,9.75,69.21,4.61
82,Lagoa,0,PT,1563163233,82,37.14,-8.45,66.99,3.36
83,Edd,90,ER,1563163233,37,13.93,41.69,88.65,3.69
84,Praia,0,BR,1563163233,82,-20.25,-43.81,55.4,1.07
85,Tabuk,85,PH,1563163234,51,17.41,121.44,82.17,2.24
86,Blythe,20,US,1563163234,23,33.61,-114.59,104.0,9.17
87,Fortuna,90,US,1563163234,100,40.6,-124.16,60.01,10.29
88,Kapaa,40,US,1563163235,70,22.08,-159.32,86.0,14.99
89,Cape Town,20,ZA,1563163095,87,-33.93,18.42,51.01,9.17
90,Plouzane,0,FR,1563163235,67,48.38,-4.62,60.8,13.87
91,Olinda,75,AU,1563163235,71,-37.84,145.39,57.0,19.46
92,Ponta do Sol,0,BR,1563163236,65,-20.63,-46.0,60.93,1.79
93,Imbituba,75,BR,1563163236,77,-28.24,-48.67,60.8,12.75
94,Padang,100,ID,1563163236,71,-0.92,100.36,81.81,6.08
95,Hobart,75,AU,1563163113,58,-42.88,147.33,55.99,18.34
96,Te Anau,100,NZ,1563163236,64,-45.41,167.72,42.57,3.56
97,Beringovskiy,94,RU,1563163237,69,63.05,179.32,60.93,8.9
98,Axim,0,GH,1563163237,87,4.87,-2.24,74.25,7.72
99,Lebu,75,ET,1563163237,93,8.96,38.73,53.6,2.24
100,Sao Filipe,51,CV,1563163238,89,14.9,-24.5,73.53,13.24
101,Torbay,90,CA,1563163238,100,47.66,-52.73,51.01,14.99
102,Barrow,99,AR,1563163238,85,-38.31,-60.23,45.09,9.6
103,Manokwari,0,ID,1563163239,70,-0.87,134.08,78.93,5.73
104,Hit,0,IQ,1563163239,21,33.64,42.83,83.25,12.19
105,Bluff,100,AU,1563163239,34,-23.58,149.07,63.09,3.38
106,Coquimbo,0,CL,1563163214,76,-29.95,-71.34,48.2,3.36
107,Naze,100,NG,1563163239,93,5.43,7.07,74.25,5.17
108,Keningau,75,MY,1563163240,62,5.33,116.16,89.6,3.36
109,Bathsheba,75,BB,1563163240,83,13.22,-59.52,80.6,27.51
110,East London,75,ZA,1563163240,87,-33.02,27.91,59.0,8.05
111,Adrar,0,DZ,1563163240,9,27.87,-0.29,91.4,3.33
112,Anadyr,40,RU,1563163241,82,64.73,177.51,55.4,17.9
113,Saskylakh,0,RU,1563163241,45,71.97,114.09,55.17,12.39
114,Hualmay,36,PE,1563163241,86,-11.1,-77.61,61.65,17.36
115,Dickson,75,US,1563163241,88,36.08,-87.39,75.0,4.7
116,Lompoc,90,US,1563162987,100,34.64,-120.46,68.0,6.93
117,Bambari,100,CF,1563163242,98,5.77,20.68,66.69,1.97
118,Lae,75,PG,1563163242,88,-6.72,146.98,77.0,2.46
119,Ambovombe,88,MG,1563163242,79,-25.18,46.09,69.93,28.9
120,Qaanaaq,100,GL,1563163243,76,77.48,-69.36,42.93,9.4
121,New Norfolk,75,AU,1563163243,58,-42.78,147.06,55.99,18.34
122,Xilitla,94,MX,1563163243,95,21.39,-98.99,71.73,2.28
123,Saldanha,0,PT,1563163243,66,41.42,-6.55,67.77,4.07
124,Zhigansk,42,RU,1563163244,37,66.77,123.37,65.61,19.37
125,Yaan,100,NG,1563163244,97,7.38,8.57,72.81,3.47
126,Camopi,67,GF,1563163244,99,3.17,-52.33,70.29,1.12
127,Floro,75,NO,1563163244,81,61.6,5.03,51.8,20.8
128,Vanimo,100,PG,1563163245,69,-2.67,141.3,82.53,4.07
129,Sao Paulo de Olivenca,6,BR,1563163245,97,-3.38,-68.87,71.73,1.45
130,Noumea,90,NC,1563163245,73,-22.28,166.46,71.6,11.43
131,Nikolskoye,0,RU,1563163245,71,59.7,30.79,57.0,2.24
132,Geraldton,90,CA,1563163246,88,49.72,-86.95,64.4,10.29
133,Palmer,90,AU,1563163246,93,-34.85,139.16,57.99,10.29
134,Bredasdorp,0,ZA,1563163246,79,-34.53,20.04,46.53,5.55
135,Del Rio,1,US,1563163246,43,29.36,-100.9,91.4,3.36
136,Lasa,75,CY,1563163247,78,34.92,32.53,78.8,9.17
137,Siva,40,GR,1563163247,74,35.21,25.04,78.8,5.82
138,Wewak,100,PG,1563163247,78,-3.55,143.63,80.37,6.69
139,Klaksvik,90,FO,1563163247,100,62.23,-6.59,53.6,4.7
140,Vladivostok,75,RU,1563163248,78,43.12,131.89,71.6,8.95
141,Gondar,90,PT,1563163248,100,41.82,-8.78,64.4,3.36
142,Deputatskiy,0,RU,1563163248,37,69.3,139.9,56.25,9.42
143,Zhezkazgan,0,KZ,1563163248,26,47.8,67.71,80.6,13.42
144,Braganca Paulista,0,BR,1563163249,87,-22.95,-46.54,60.8,1.61
145,Castro,0,CL,1563163249,100,-42.48,-73.76,39.2,5.82
146,Namibe,0,AO,1563163249,85,-15.19,12.15,66.33,14.12
147,Hamilton,40,CA,1563163040,68,43.26,-79.87,71.6,5.82
148,Hithadhoo,95,MV,1563163250,69,-0.6,73.08,82.89,4.14
149,Palomares,0,ES,1563163250,82,40.39,-5.74,72.0,3.89
150,Urucara,0,BR,1563163250,91,-2.54,-57.76,73.17,2.55
151,Haradok,99,BY,1563163250,92,55.46,29.99,50.49,1.99
152,Nizhniy Baskunchak,52,RU,1563163251,57,48.22,46.83,69.93,4.81
153,Mokrousovo,100,RU,1563163251,78,55.81,66.77,72.09,12.86
154,Nemuro,75,JP,1563163251,100,43.32,145.57,55.4,8.05
155,Saint-Joseph,75,FR,1563163251,72,43.56,6.97,72.0,2.24
156,Leningradskiy,100,RU,1563163252,96,69.38,178.42,36.81,2.37
157,Salalah,90,OM,1563163252,100,17.01,54.1,77.0,4.7
158,Bloomfield,1,US,1563163252,94,40.75,-92.42,82.4,5.82
159,Yumen,0,CN,1563163252,13,40.29,97.04,87.21,11.86
160,Montepuez,1,MZ,1563163253,92,-13.13,39.0,60.57,4.88
161,Bani Walid,0,LY,1563163253,21,31.76,14.0,86.85,21.21
162,Santa Rosa de Lima,64,SV,1563163253,86,13.63,-87.89,75.33,2.39
163,Chuy,7,UY,1563163254,89,-33.69,-53.46,46.17,4.18
164,Kahului,40,US,1563163254,48,20.89,-156.47,87.8,23.04
165,Padampur,0,IN,1563163254,53,29.71,73.62,90.09,15.68
166,Rocha,71,UY,1563163046,93,-34.48,-54.34,41.49,2.84
167,Nantucket,1,US,1563163255,69,41.28,-70.1,75.99,5.82
168,Saa,90,NG,1563163255,97,7.32,10.08,72.09,3.42
169,Wajima,75,JP,1563163255,83,37.4,136.9,71.6,5.82
170,Saint George,20,GR,1563162960,77,39.45,22.34,66.2,3.36
171,Ketchikan,20,US,1563163256,63,55.34,-131.65,66.2,11.41
172,Rawson,0,AR,1563163256,72,-43.3,-65.11,43.29,10.63
173,Toamasina,40,MG,1563163256,93,-18.17,49.38,60.8,5.82
174,Cherskiy,83,RU,1563163256,55,68.75,161.3,50.85,19.37
175,Burnie,100,AU,1563163257,79,-41.05,145.91,52.0,4.0
176,Tevaitoa,1,PF,1563163257,79,-16.78,-151.5,78.21,12.48
177,Tiksi,85,RU,1563163257,54,71.64,128.87,46.89,17.43
178,Loandjili,75,CG,1563163258,100,-4.77,11.87,69.8,3.36
179,Pak Phanang,20,TH,1563163258,55,8.35,100.2,91.4,2.24
180,Memari,40,IN,1563163258,67,23.17,88.11,93.2,8.05
181,Taicheng,100,CN,1563163258,70,22.25,112.8,89.01,9.15
182,Vityazevo,0,RU,1563163259,88,44.99,37.26,64.4,13.42
183,Mumford,36,GH,1563163259,94,5.26,-0.76,70.65,4.03
184,Santiago de Cao,75,PE,1563163259,88,-7.96,-79.24,62.6,8.05
185,Karratha,0,AU,1563163260,17,-20.74,116.85,74.61,24.45
186,Mar del Plata,41,AR,1563163260,76,-46.43,-67.52,38.97,12.82
187,Umtata,0,ZA,1563163260,46,-31.59,28.78,50.0,1.12
188,Shakawe,0,BW,1563163260,37,-18.36,21.84,45.81,3.76
189,Tuatapere,75,NZ,1563163261,77,-46.13,167.69,46.0,3.0
190,Paamiut,0,GL,1563163261,89,61.99,-49.67,42.21,2.93
191,Cidreira,100,BR,1563163261,89,-30.17,-50.22,48.33,4.83
192,Opuwo,0,NA,1563163262,50,-18.06,13.84,51.21,2.24
193,Ashdod,20,IL,1563162992,73,31.8,34.65,75.2,4.7
194,Grenfell,14,AU,1563163262,57,-33.9,148.16,54.45,17.07
195,Matara,20,BI,1563163262,83,-3.48,29.48,69.8,0.2
196,Pangnirtung,44,CA,1563163263,54,66.15,-65.72,49.41,2.42
197,Tautira,20,PF,1563163263,69,-17.73,-149.15,80.6,4.7
198,Marshfield,1,US,1563163263,53,42.09,-70.71,77.0,5.82
199,Hasaki,75,JP,1563163264,83,35.73,140.83,79.0,11.41
200,Shelburne,1,CA,1563163055,100,44.08,-80.2,68.0,3.36
201,Sitka,0,US,1563163264,70,37.17,-99.65,77.0,1.01
202,Tarbagatay,20,RU,1563163214,32,51.48,107.36,84.2,15.66
203,Cabra,0,ES,1563163264,82,37.47,-4.43,73.0,4.7
204,Khani,0,GE,1563163264,61,41.96,42.96,77.0,19.46
205,Broome,58,GB,1563163265,87,52.47,1.45,57.0,4.7
206,Airai,100,TL,1563163265,49,-8.93,125.41,81.09,0.96
207,Saint-Philippe,1,CA,1563163265,68,45.36,-73.48,69.01,8.77
208,Gazanjyk,0,TM,1563163265,47,39.24,55.52,83.97,8.14
209,Cheney,1,US,1563163266,27,47.49,-117.58,80.6,6.93
210,Tecoanapa,75,MX,1563163266,83,16.99,-99.26,82.4,6.93
211,Half Moon Bay,1,US,1563163267,82,37.46,-122.43,69.8,14.99
212,Sturgis,49,CA,1563163267,93,51.94,-102.54,66.33,5.88
213,Dunedin,45,NZ,1563163267,71,-45.87,170.5,48.99,14.0
214,Havoysund,100,NO,1563163267,75,71.0,24.66,46.4,6.93
215,Inhambane,0,MZ,1563163268,92,-23.87,35.38,58.41,1.54
216,Gravdal,49,NO,1563163268,87,59.79,5.78,53.01,21.92
217,Shellbrook,75,CA,1563163268,93,53.22,-106.39,62.6,3.36
218,Verkhnevilyuysk,100,RU,1563163268,49,63.45,120.31,71.73,7.31
219,Tasiilaq,100,GL,1563163269,57,65.61,-37.64,48.2,9.17
220,Buala,94,SB,1563163269,75,-8.15,159.59,81.09,3.09
221,Chumikan,70,RU,1563163269,70,54.72,135.31,66.33,6.26
222,Faya,80,SA,1563163269,60,18.39,42.45,78.8,5.82
223,Thompson,90,CA,1563163270,68,55.74,-97.86,64.4,3.36
224,Sola,0,TZ,1563163270,69,-3.17,33.8,62.37,5.88
225,Ilulissat,20,GL,1563163271,64,69.22,-51.1,48.2,2.24
226,Ambon,0,FR,1563163271,82,47.55,-2.56,62.01,11.41
227,Tezu,100,IN,1563163271,98,27.93,96.16,71.01,3.0
228,Cayenne,91,GF,1563163272,100,4.94,-52.33,75.2,3.09
229,Havelock,1,US,1563163272,83,34.88,-76.9,82.99,3.47
230,Champua,68,IN,1563163272,63,22.04,85.66,84.33,12.93
231,Newport,1,US,1563163272,60,41.49,-71.31,77.0,6.93
232,Leshukonskoye,1,RU,1563163273,58,64.9,45.76,59.49,1.32
233,Nago,40,IT,1563163273,72,45.88,10.89,71.6,5.82
234,Dongsheng,84,CN,1563163273,74,29.72,112.52,85.05,1.25
235,Ucluelet,100,CA,1563163065,87,48.94,-125.55,66.99,7.43
236,Pisco,40,PE,1563163274,77,-13.71,-76.2,59.0,1.12
237,Mahebourg,75,MU,1563163274,88,-20.41,57.7,68.0,12.75
238,Anapskaya,0,RU,1563163274,88,44.9,37.38,64.4,13.42
239,Alofi,15,NU,1563163274,69,-19.06,-169.92,78.8,12.75
240,Victoria,75,BN,1563163087,70,5.28,115.24,87.8,3.36
241,Maceio,0,BR,1563163274,88,-9.67,-35.74,69.8,3.36
242,Bonthe,100,SL,1563163275,87,7.53,-12.5,75.33,8.57
243,Ancud,0,CL,1563163275,100,-41.87,-73.83,39.2,5.82
244,Praia da Vitoria,20,PT,1563163275,88,38.73,-27.07,68.0,7.87
245,Bubaque,93,GW,1563163276,83,11.28,-15.83,79.29,12.97
246,Kasongo,99,CD,1563163276,44,-4.43,26.67,77.85,1.48
247,Mayo,90,CA,1563163276,56,63.59,-135.9,68.0,6.93
248,Macusani,2,PE,1563163276,95,-14.07,-70.43,29.97,0.58
249,Boende,37,CD,1563163277,94,-0.28,20.88,70.29,2.55
250,Bose,92,IT,1563163277,93,45.46,8.01,62.01,3.36
251,Haapiti,20,PF,1563163277,69,-17.57,-149.87,80.6,4.7
252,Sept-Iles,90,CA,1563163278,100,50.2,-66.38,55.4,2.24
253,Constitucion,90,MX,1563163278,68,23.99,-104.67,70.0,4.7
254,Nuuk,10,GL,1563163278,54,64.17,-51.74,53.6,4.7
255,Pevek,100,RU,1563163278,97,69.7,170.27,33.93,15.99
256,Monjaras,39,HN,1563163278,83,13.2,-87.37,79.65,4.59
257,Haines Junction,4,CA,1563163279,47,60.75,-137.51,60.57,9.91
258,Georgetown,20,GY,1563163279,94,6.8,-58.16,75.2,4.7
259,Bad Lauterberg,76,DE,1563163279,96,51.63,10.47,57.0,3.56
260,Los Llanos de Aridane,20,ES,1563163279,83,28.66,-17.92,71.6,13.87
261,Cockburn Town,100,TC,1563163214,78,21.46,-71.14,82.53,20.92
262,Batagay,44,RU,1563163280,42,67.65,134.64,69.93,2.89
263,Shebunino,0,RU,1563163280,87,57.66,40.04,55.4,2.24
264,Holme,3,DK,1563163280,76,56.11,10.17,55.4,12.75
265,Arraial do Cabo,1,BR,1563162989,74,-22.97,-42.02,72.09,4.83
266,Lhokseumawe,94,ID,1563163281,66,5.18,97.15,81.09,2.26
267,Abha,74,SA,1563163281,60,18.22,42.5,78.8,5.82
268,Soe,0,EE,1563163281,100,57.91,26.05,52.0,4.7
269,Severo-Yeniseyskiy,0,RU,1563163015,55,60.37,93.04,66.33,6.98
270,Turayf,0,SA,1563163282,46,31.68,38.65,71.6,6.93
271,Sapozhok,10,RU,1563163282,89,53.94,40.68,55.99,1.01
272,Zonguldak,100,TR,1563163282,86,41.25,31.83,67.41,21.94
273,Aswan,0,EG,1563162997,20,24.09,32.9,86.0,6.93
274,Porto Novo,0,BR,1563163283,87,-23.68,-45.44,55.4,3.36
275,Bastrop,90,US,1563163283,94,32.78,-91.91,75.0,9.17
276,Yulara,23,AU,1563163210,38,-25.24,130.99,59.0,14.99
277,Margate,75,AU,1563163283,58,-43.03,147.26,55.99,18.34
278,Grindavik,90,IS,1563163284,100,63.84,-22.43,57.99,17.22
279,Yar-Sale,47,RU,1563163284,64,66.83,70.83,72.81,7.54
280,Lorengau,97,PG,1563163284,81,-2.02,147.27,81.45,7.9
281,Iranshahr,0,IR,1563163284,36,27.21,60.69,91.4,4.7
282,Komsomolskiy,100,RU,1563163285,93,67.55,63.78,48.33,15.68
283,Bontang,78,ID,1563162986,58,0.12,117.47,85.05,4.79
284,Beyneu,0,KZ,1563163285,48,45.32,55.19,73.17,16.11
285,Mangan,99,IN,1563163285,94,27.5,88.54,58.41,3.27
286,Bekovo,0,RU,1563163286,89,52.46,43.7,57.33,5.44
287,Muko,75,JP,1563163286,61,34.95,135.7,84.0,8.05
288,Egvekinot,100,RU,1563163286,92,66.32,-179.17,49.77,12.15
289,Port Hardy,75,CA,1563163286,77,50.7,-127.42,62.6,9.17
290,Weyburn,27,CA,1563163133,84,49.67,-103.85,73.0,3.0
291,Filadelfia,100,PY,1563163287,94,-22.35,-60.04,66.33,7.7
292,Kieta,81,PG,1563163287,68,-6.22,155.63,82.17,3.85
293,Novaya Ladoga,1,RU,1563163287,83,60.11,32.31,57.0,9.69
294,Champerico,75,MX,1563163288,88,16.38,-93.6,77.0,2.15
295,Salta,0,AR,1563163288,93,-24.79,-65.41,50.0,4.7
296,Igarka,99,RU,1563163288,77,67.47,86.57,60.93,9.84
297,Kruisfontein,0,ZA,1563163289,84,-34.0,24.73,47.97,5.12
298,Mount Gambier,90,AU,1563163228,87,-37.83,140.78,55.4,14.99
299,Marrakesh,0,MA,1563163289,64,31.63,-7.99,71.6,3.36
300,Kamaishi,75,JP,1563163289,65,39.28,141.86,78.8,12.75
301,Kalianget,73,ID,1563163289,70,-7.74,113.68,72.09,5.46
302,Dingle,87,PH,1563163290,81,11.0,122.67,82.17,6.31
303,Fort Nelson,20,CA,1563163290,49,58.81,-122.69,71.6,3.36
304,Atar,93,MR,1563163290,21,20.52,-13.05,91.53,6.85
305,Belaya Gora,78,RU,1563163290,53,68.54,146.19,60.57,7.25
306,Anjiang,97,CN,1563163291,73,27.32,110.14,85.05,1.39
307,Sibu,75,MY,1563163291,66,2.29,111.83,86.0,3.36
308,Ako,40,JP,1563163291,69,34.79,134.38,84.99,3.36
309,Reporoa,85,NZ,1563163291,73,-38.44,176.35,57.99,3.0
310,Husavik,0,CA,1563163292,76,50.56,-96.99,79.0,3.91
311,Kipini,24,KE,1563163292,80,-2.53,40.53,76.05,14.36
312,Quatre Cocos,75,MU,1563163292,88,-20.21,57.76,68.0,12.75
313,Sambava,42,MG,1563163293,75,-14.27,50.17,62.73,3.96
314,Mount Pleasant,75,US,1563163169,88,33.16,-94.97,73.99,5.55
315,Alexandria,0,RO,1563163293,97,43.97,25.33,57.0,4.41
316,Maragogi,46,BR,1563163277,94,-9.01,-35.22,68.85,2.35
317,San Antero,20,CO,1563163293,94,9.38,-75.76,78.8,5.1
318,Portland,1,US,1563162657,60,43.66,-70.25,71.01,5.82
319,Seddon,75,AU,1563163294,71,-37.81,144.89,57.99,19.46
320,Lavrentiya,80,RU,1563163294,52,65.58,-170.99,67.77,10.78
321,Hovd,75,NO,1563163294,93,63.83,10.7,51.01,14.99
322,Himare,0,AL,1563163295,77,40.1,19.74,69.01,2.24
323,Oum Hadjer,100,TD,1563163295,62,13.3,19.7,82.53,17.25
324,Seoul,75,KR,1563162894,65,37.57,126.98,82.4,2.24
325,Taoudenni,0,ML,1563163295,24,22.68,-3.98,90.45,3.58
326,Elblag,43,PL,1563163117,100,54.15,19.41,57.99,3.36
327,Kiruna,100,SE,1563163296,93,67.86,20.23,48.2,2.24
328,Sawakin,61,SD,1563163296,56,19.1,37.33,81.09,20.24
329,Flinders,0,AU,1563163029,31,-34.58,150.85,64.0,17.22
330,Antalaha,73,MG,1563163297,91,-14.9,50.28,58.77,3.31
331,Nome,90,US,1563163297,94,30.04,-94.42,84.0,5.82
332,Chaplynka,62,UA,1563163297,68,46.36,33.54,63.45,7.05
333,Bilibino,98,RU,1563163297,84,68.06,166.44,51.21,6.15
334,Aklavik,75,CA,1563163298,64,68.22,-135.01,68.0,9.17
335,Ostrovnoy,100,RU,1563163298,90,68.05,39.51,43.29,7.38
336,Camacupa,0,AO,1563163298,39,-12.02,17.48,50.49,2.64
337,Shreveport,90,US,1563163234,100,32.52,-93.77,75.2,4.7
338,Mount Isa,45,AU,1563163298,17,-20.73,139.49,66.2,12.75
339,Catarman,100,PH,1563163299,87,12.5,124.64,78.21,5.46
340,Mikhaylovka,100,RU,1563163299,95,52.96,103.29,58.05,8.34
341,Ghanzi,0,BW,1563163299,26,-21.7,21.65,48.33,4.12
342,Vaitape,9,PF,1563163300,81,-16.52,-151.75,78.57,11.97
343,Bonavista,100,CA,1563163300,83,48.65,-53.11,50.0,7.0
344,Mahanoro,45,MG,1563163300,81,-19.9,48.8,58.05,2.26
345,Qaqortoq,0,GL,1563163300,71,60.72,-46.03,50.0,1.12
346,Hay River,20,CA,1563163301,46,60.82,-115.79,69.8,2.24
347,Asyut,0,EG,1563163301,50,27.18,31.19,77.0,5.82
348,Parry Sound,29,CA,1563163301,92,45.34,-80.04,60.01,13.98
349,Buchanan,40,LR,1563163301,94,5.88,-10.05,73.4,8.19
350,Christchurch,38,NZ,1563163137,66,-43.53,172.64,53.01,9.17
351,Nyaunglebin,100,MM,1563163302,91,17.95,96.73,77.49,2.77
352,Longyearbyen,75,NO,1563163302,75,78.22,15.63,44.6,6.93
353,Saint Anthony,1,US,1563163303,36,43.97,-111.68,80.6,13.87
354,Nioro,48,GM,1563163303,76,13.79,-15.05,79.65,10.22
355,Santa Rosa,0,AR,1563163113,42,-36.62,-64.29,47.61,9.04
356,Coihaique,40,CL,1563163210,86,-45.58,-72.07,41.0,4.7
357,Vila Franca do Campo,20,PT,1563163303,82,37.72,-25.43,68.0,2.24
358,Azovo,0,RU,1563163304,50,54.7,73.03,77.0,6.71
359,Skjervoy,100,NO,1563163304,77,70.03,20.97,47.61,3.53
360,Waitati,45,NZ,1563163304,71,-45.75,170.57,48.99,14.0
361,Itoman,20,JP,1563163304,74,26.12,127.67,89.6,9.17
362,Itacare,0,BR,1563163305,100,-14.28,-39.0,69.8,4.7
363,Namatanai,100,PG,1563163305,76,-3.66,152.44,80.01,6.17
364,Richards Bay,0,ZA,1563163305,82,-28.77,32.06,66.33,14.74
365,Ust-Shonosha,100,RU,1563163305,72,61.15,41.34,52.29,1.25
366,Taksimo,0,RU,1563163305,52,56.36,114.84,64.89,5.03
367,Bad Wildungen,75,DE,1563163306,82,51.12,9.13,57.2,5.82
368,Sioux Lookout,20,CA,1563163028,100,50.1,-91.92,75.2,3.36
369,Grand Gaube,75,MU,1563163306,88,-20.01,57.66,68.0,12.75
370,Sinnamary,73,GF,1563163306,79,5.38,-52.96,80.73,12.95
371,Lata,61,IN,1563163307,88,30.78,78.62,46.53,5.28
372,Westport,1,US,1563163205,60,41.14,-73.36,79.0,9.17
373,Itarema,69,BR,1563163307,95,-2.92,-39.92,72.81,3.83
374,Gornyy,97,RU,1563163307,86,51.76,48.54,62.73,7.0
375,Charlestown,1,US,1563163078,60,41.38,-71.64,77.0,6.93
376,Ballina,24,IE,1563163308,87,54.11,-9.15,57.99,3.0
377,Medicine Hat,75,CA,1563163300,44,50.04,-110.68,75.2,17.22
378,Mackay,90,CA,1563163308,63,53.65,-115.58,64.4,6.93
379,Podor,22,MR,1563163309,66,16.65,-14.96,76.05,18.79
380,Mananjary,5,MG,1563163309,82,-19.16,46.8,45.81,5.37
381,Mugur-Aksy,41,RU,1563163309,64,50.38,90.44,49.05,5.28
382,Makakilo City,40,US,1563163228,48,21.35,-158.09,87.8,12.75
383,Jiazi,0,CN,1563163310,70,19.61,110.49,91.4,4.47
384,Narsaq,0,GL,1563163310,71,60.91,-46.05,50.0,1.12
385,Port Hedland,0,AU,1563163310,16,-20.31,118.58,77.0,20.8
386,Kapuskasing,75,CA,1563163310,72,49.42,-82.43,64.4,4.7
387,Avera,1,US,1563163311,78,33.19,-82.53,82.4,4.7
388,Wilmington,1,US,1563163190,68,39.75,-75.55,77.0,5.7
389,Araouane,19,ML,1563163311,26,18.9,-3.53,94.41,4.72
390,Vila do Maio,20,CV,1563163311,83,15.13,-23.22,75.2,6.93
391,Napanee,40,CA,1563163312,88,44.25,-76.95,68.0,8.05
392,Kuching,75,MY,1563163312,62,1.56,110.34,87.8,8.05
393,Neyshabur,0,IR,1563163312,50,36.21,58.79,76.41,6.67
394,Pacific Grove,1,US,1563163312,53,36.62,-121.92,77.0,6.93
395,Kloulklubed,75,PW,1563163313,70,7.04,134.26,84.2,17.22
396,Pangai,75,TO,1563163313,73,-19.8,-174.35,77.0,16.11
397,Esmeralda,0,CL,1563163313,88,-34.33,-70.9,42.93,4.16
398,Tiznit,0,MA,1563163209,94,29.7,-9.73,67.41,5.32
399,Yaring,20,TH,1563163314,59,6.87,101.37,89.6,11.41
400,Keetmanshoop,0,NA,1563163314,40,-26.57,18.15,48.69,0.72
401,Rypefjord,100,NO,1563163314,75,70.63,23.67,46.4,6.93
402,Meulaboh,97,ID,1563163314,66,4.14,96.13,81.09,3.56
403,Atbasar,0,KZ,1563163315,52,51.81,68.36,73.53,13.89
404,Amga,17,RU,1563163315,37,60.89,131.98,87.93,2.01
405,Tessalit,0,ML,1563163242,33,20.2,1.01,86.13,10.33
406,Tete,0,MZ,1563163315,77,-16.16,33.59,64.4,2.59
407,Kununurra,14,AU,1563163316,17,-15.77,128.74,73.4,13.87
408,Beohari,100,IN,1563163316,62,24.05,81.38,85.41,15.55
409,Kapit,0,MY,1563163316,50,2.02,112.94,89.73,2.28
410,Peniche,75,PT,1563163316,88,39.36,-9.38,64.99,10.29
411,Manoel Urbano,62,BR,1563163317,70,-8.84,-69.26,76.77,1.25
412,Isangel,75,VU,1563163317,74,-19.55,169.27,80.6,9.17
413,Camacha,75,PT,1563163317,88,33.08,-16.33,69.8,13.87
414,Esperance,0,AU,1563163317,76,-33.86,121.89,55.4,12.75
415,Acapulco,75,MX,1563163318,83,16.86,-99.88,82.4,6.93
416,Laguna,75,BZ,1563163318,88,16.17,-88.94,80.6,2.68
417,Ilhabela,0,BR,1563163222,64,-23.78,-45.36,74.61,9.35
418,Male,33,UA,1563163319,81,50.74,33.7,56.25,4.68
419,Brandon,1,US,1563163203,83,43.59,-96.57,79.0,5.82
420,Agde,0,FR,1563163319,49,43.31,3.47,71.6,6.93
421,Baindur,90,IN,1563163319,80,13.87,74.63,80.01,1.5
422,Channel-Port aux Basques,88,CA,1563163319,97,47.57,-59.14,55.53,17.0
423,Presidencia Roque Saenz Pena,100,AR,1563163320,59,-26.79,-60.44,61.29,6.02
424,Kungurtug,67,RU,1563163320,70,50.6,97.53,62.37,3.94
425,Okha,72,RU,1563163320,71,53.59,142.95,65.25,14.54
426,Tuy Hoa,23,VN,1563163205,45,13.08,109.3,92.61,10.31
427,Terrace Bay,20,CA,1563163321,65,48.78,-87.1,53.73,5.1
428,Kaniama,0,CD,1563163321,37,-7.57,24.18,62.73,5.21
429,Zeya,100,RU,1563163321,97,53.74,127.27,61.29,2.64
430,Aksu,0,KZ,1563163321,53,52.04,76.93,77.0,13.42
431,Mehran,0,IR,1563163322,30,33.12,46.17,71.6,4.7
432,Dawei,100,MM,1563163322,73,14.07,98.19,82.53,6.13
433,San Felipe,0,CL,1563163322,90,-32.75,-70.73,45.0,7.0
434,Suratgarh,19,IN,1563163222,56,29.32,73.9,88.29,17.31
435,Pulandian,40,CN,1563163323,61,39.4,121.96,84.99,11.18
436,Stromness,40,CA,1563163323,68,42.87,-79.55,70.0,5.82
437,Ayaviri,13,PE,1563163323,37,-14.88,-70.59,36.81,6.51
438,Alekseyevsk,100,RU,1563163323,39,57.84,108.35,76.77,10.94
439,Kiama,0,AU,1563163324,31,-34.67,150.86,64.0,17.22
440,Dillon,1,US,1563163324,56,45.22,-112.64,73.99,8.05
441,Tomatlan,100,MX,1563163324,84,19.93,-105.25,80.37,11.18
442,Humaita,0,AR,1563163324,93,-24.93,-65.37,50.0,4.7
443,Anloga,20,GH,1563163201,88,5.79,0.9,77.0,9.17
444,Isla Mujeres,75,MX,1563163325,79,21.23,-86.73,84.2,9.17
445,Corrente,0,BR,1563163325,45,-17.45,-44.68,60.93,1.21
446,Augusto Correa,0,BR,1563163325,98,-1.02,-46.63,71.73,1.9
447,Grootfontein,0,NA,1563163326,41,-19.56,18.1,39.2,4.7
448,Voyvozh,26,RU,1563163326,90,62.89,54.96,59.13,3.06
449,Abu Dhabi,0,AE,1563163201,56,24.47,54.37,93.2,3.36
450,Atambua,100,ID,1563163326,65,-9.11,124.89,80.37,11.48
451,Zhuanghe,100,CN,1563163326,72,39.7,122.97,76.41,6.4
452,Marigot,99,HT,1563163327,90,18.23,-72.32,78.01,3.98
453,Tabou,1,CI,1563163327,87,4.42,-7.36,69.57,1.16
454,Arlit,2,NE,1563163327,14,18.74,7.39,93.33,9.37
455,Bosaso,28,SO,1563163327,64,11.28,49.18,87.21,9.95
456,Ondjiva,0,AO,1563163328,19,-17.07,15.73,50.85,6.71
457,Hobyo,71,SO,1563163328,66,5.35,48.53,77.49,18.41
458,Khislavichi,100,RU,1563163328,89,54.19,32.16,53.37,0.89
459,Saint-Junien,0,FR,1563163329,71,45.89,0.9,59.0,8.05
460,Manta,10,RO,1563163329,88,45.1,24.1,52.65,2.46
461,Mogadishu,38,SO,1563163033,83,2.04,45.34,74.97,9.26
462,Tongliao,2,CN,1563163329,31,43.61,122.27,90.45,2.01
463,Metu,60,ET,1563163330,98,8.3,35.58,55.89,3.33
464,Mocuba,20,MZ,1563163330,96,-16.84,36.99,58.05,1.25
465,Barmer,83,IN,1563163330,64,25.74,71.4,83.61,29.44
466,Grover Beach,90,US,1563163330,100,35.12,-120.62,66.0,4.7
467,Ullapool,86,GB,1563163331,92,57.9,-5.16,53.01,1.01
468,Marsh Harbour,1,BS,1563163331,72,26.54,-77.06,84.33,11.43
469,Luena,0,AO,1563163331,41,-11.78,19.91,48.69,3.11
470,Nata,0,BW,1563163331,55,-20.21,26.19,47.61,6.69
471,Hun,9,BE,1563163332,93,50.34,4.87,51.8,6.93
472,Maningrida,70,AU,1563163332,37,-12.05,134.23,82.53,12.66
473,Sisimiut,33,GL,1563163332,79,66.94,-53.67,42.93,6.35
474,Gisborne,46,NZ,1563163297,45,-38.66,178.02,61.0,4.0
475,Umea,90,SE,1563163333,93,63.83,20.26,53.6,4.7
476,Namie,75,JP,1563163333,83,37.52,140.86,75.99,3.36
477,Beloha,28,MG,1563163333,85,-25.17,45.06,63.09,12.06
478,Tura,100,RU,1563163333,67,64.27,100.22,68.13,4.59
479,Nyuksenitsa,0,RU,1563163334,82,60.41,44.24,54.81,0.6
480,Kumluca,0,TR,1563163334,67,36.37,30.29,55.17,4.27
481,Ulladulla,0,AU,1563163334,31,-35.36,150.48,61.0,17.22
482,Kawalu,94,ID,1563163335,70,-7.38,108.21,72.45,6.17
483,Xinglongshan,40,CN,1563163335,51,43.96,125.47,84.2,4.47
484,Sfantu Gheorghe,90,RO,1563163335,100,44.65,26.83,62.01,2.24
485,Kayerkan,40,RU,1563163335,87,69.35,87.76,59.0,15.66
486,La Ronge,90,CA,1563163079,93,55.1,-105.3,59.0,4.7
487,Muyezerskiy,94,RU,1563163336,94,63.93,31.65,45.81,4.99
488,Strezhevoy,0,RU,1563163336,50,60.73,77.6,78.8,4.47
489,Camalu,0,MX,1563163336,90,30.85,-116.07,64.53,11.54
490,Rio Grande,0,BR,1563163336,93,-32.03,-52.1,42.93,2.42
491,Kutum,99,SD,1563163337,56,14.2,24.66,76.41,11.1
492,Artur Nogueira,0,BR,1563163201,67,-22.57,-47.17,66.99,8.05
493,Kamina,0,CD,1563163337,40,-8.74,25.0,59.13,4.65
494,Abu Kamal,0,SY,1563163338,43,34.45,40.92,73.17,11.43
495,Lundamo,75,NO,1563163338,93,63.15,10.29,50.0,14.99
496,Murshidabad,96,IN,1563163338,59,24.17,88.27,91.17,8.37
497,Tengzhou,10,CN,1563163338,40,35.11,117.16,93.33,7.07
498,Fayetteville,90,US,1563163300,83,36.06,-94.16,73.99,10.29
499,Yuksekova,0,TR,1563163339,48,37.57,44.29,64.4,6.93
500,Sibolga,92,ID,1563163339,76,1.74,98.78,81.09,4.59
501,Oranjemund,0,ZA,1563163339,87,-28.55,16.43,54.09,12.12
502,Mnogovershinnyy,50,RU,1563163123,56,53.94,139.92,73.17,5.14
503,Darhan,100,MN,1563163340,66,49.49,105.92,72.09,4.16
504,Naberera,100,TZ,1563163340,80,-4.2,36.93,58.41,13.06
505,Caravelas,2,BR,1563163340,91,-17.73,-39.27,67.41,7.54
506,Mauguio,0,FR,1563163340,46,43.62,4.01,71.6,9.17
507,Pavlodar,0,KZ,1563163341,53,52.28,76.96,77.0,13.42
508,Kosai,75,JP,1563163341,88,34.71,137.53,82.0,9.17
509,Pangkalanbuun,74,ID,1563163341,61,-2.68,111.62,83.25,4.88
510,Nelidovo,93,RU,1563163341,90,56.22,32.78,50.13,3.8
511,Aasiaat,0,GL,1563163342,69,68.71,-52.87,40.41,2.93
512,Mildura,90,AU,1563163342,67,-34.18,142.16,57.2,10.29
513,Turbat,73,PK,1563163342,76,26.0,63.05,80.73,7.05
514,Port-Gentil,100,GA,1563163343,85,-0.72,8.78,75.33,16.78
515,Sembakung,50,ID,1563163343,60,3.82,117.25,88.29,2.55
516,Manzhouli,100,CN,1563163343,40,49.6,117.43,73.89,7.9
517,Syumsi,100,RU,1563163344,80,57.11,51.61,58.05,5.7
518,Samarai,100,PG,1563163344,95,-10.62,150.67,74.25,7.43
519,Abidjan,20,CI,1563163333,94,5.32,-4.02,75.2,3.36
520,Ouadda,100,CF,1563163344,98,8.07,22.4,66.69,2.55
521,Ames,1,US,1563163235,94,42.03,-93.62,82.0,4.7
522,Bindi,95,NG,1563163345,62,12.86,8.84,81.09,17.18
523,Passagem Franca,4,BR,1563163345,69,-6.18,-43.78,72.09,2.26
524,Konstantinovo,75,BG,1563163346,100,42.0,25.79,57.2,2.24
525,Kavieng,98,PG,1563163346,79,-2.57,150.8,82.17,8.86
526,Joshimath,69,IN,1563163346,79,30.57,79.57,58.77,4.41
527,Siderno,90,IT,1563163346,100,38.28,16.3,73.4,16.11
528,Goulburn,37,AU,1563163346,74,-34.75,149.72,54.0,5.99
529,Dhidhdhoo,100,MV,1563163347,78,6.88,73.1,81.09,15.19
530,Sur,94,OM,1563163050,48,22.57,59.53,88.29,13.15
531,Caraquet,90,CA,1563163347,88,47.79,-64.94,62.6,8.05
532,Shu,0,KZ,1563163247,19,43.6,73.76,84.69,5.77
533,Chippewa Falls,1,US,1563163209,73,44.94,-91.39,78.8,5.82
534,Bowen,100,AU,1563163348,26,-20.01,148.25,72.0,10.29
535,Batsfjord,75,NO,1563163348,87,70.63,29.72,46.4,4.7
536,Tual,45,ID,1563163348,84,-5.67,132.75,77.85,22.68
537,Cortez,20,US,1563163204,34,37.35,-108.58,78.8,10.29
538,Lang Son,100,VN,1563163085,83,21.83,106.73,83.61,1.32
539,Altay,0,CN,1563163349,42,47.83,88.13,68.13,3.53
540,Aberdeen,1,US,1563163207,72,46.98,-123.82,72.0,9.17
541,Kaeo,5,NZ,1563163349,69,-35.1,173.78,62.01,14.0
542,Lima,90,PE,1563163100,87,-12.06,-77.04,60.8,9.17
543,Vanavara,85,RU,1563163350,65,60.35,102.28,72.45,6.62
544,Caudry,0,FR,1563163350,87,50.12,3.41,55.4,5.82
545,Muros,90,ES,1563163351,100,42.77,-9.06,66.0,2.24
